{"type":"FeatureCollection","metadata":{"source":"Fishing Status (fishingstatus.com)","generated":"2026-04-24T13:22:32.408063Z","gpx_files":["Fishing_Spots_HatterasNC.gpx","Fishing_Spots_MoreheadNC.gpx","Fishing_spots_ChesapeakeMD.gpx"],"regions":["HatterasNC","MoreheadNC","ChesapeakeMD"],"region":{"lat_min":33.7,"lat_max":39.0,"lon_min":-78.89,"lon_max":-72.21},"symbols":{"Wreck":"charted or known shipwreck","Rocks":"rock, ledge, reef, or bottom structure"}},"feature_count":270,"features":[{"type":"Feature","geometry":{"type":"Point","coordinates":[-75.18416,35.10333]},"properties":{"name":"280 Rocks","symbol":"Rocks","region":"HatterasNC","source":"Fishing Status (fishingstatus.com)"}},{"type":"Feature","geometry":{"type":"Point","coordinates":[-75.30033,35.15033]},"properties":{"name":"Diamond Shoals Light Tower","symbol":"Rocks","region":"HatterasNC","source":"Fishing Status (fishingstatus.com)"}},{"type":"Feature","geometry":{"type":"Point","coordinates":[-75.22912,35.09069]},"properties":{"name":"Hatteras Hole","symbol":"Rocks","region":"HatterasNC","source":"Fishing Status (fishingstatus.com)"}},{"type":"Feature","geometry":{"type":"Point","coordinates":[-75.27078,35.04591]},"properties":{"name":"230 Rocks","symbol":"Rocks","region":"HatterasNC","source":"Fishing Status (fishingstatus.com)"}},{"type":"Feature","geometry":{"type":"Point","coordinates":[-74.98333,35.27333]},"properties":{"name":"1250 Rocks","symbol":"Rocks","region":"HatterasNC","source":"Fishing Status (fishingstatus.com)"}},{"type":"Feature","geometry":{"type":"Point","coordinates":[-75.42493,34.83096]},"properties":{"name":"Pamlico Canyon","symbol":"Rocks","region":"HatterasNC","source":"Fishing Status (fishingstatus.com)"}},{"type":"Feature","geometry":{"type":"Point","coordinates":[-75.2493,35.0604]},"properties":{"name":"240 Rocks","symbol":"Rocks","region":"HatterasNC","source":"Fishing Status (fishingstatus.com)"}},{"type":"Feature","geometry":{"type":"Point","coordinates":[-75.71392,34.64447]},"properties":{"name":"Portsmouth Point","symbol":"Rocks","region":"HatterasNC","source":"Fishing Status (fishingstatus.com)"}},{"type":"Feature","geometry":{"type":"Point","coordinates":[-75.22423,35.06964]},"properties":{"name":"250 Rocks","symbol":"Rocks","region":"HatterasNC","source":"Fishing Status (fishingstatus.com)"}},{"type":"Feature","geometry":{"type":"Point","coordinates":[-75.20895,35.0834]},"properties":{"name":"260 Rocks","symbol":"Rocks","region":"HatterasNC","source":"Fishing Status (fishingstatus.com)"}},{"type":"Feature","geometry":{"type":"Point","coordinates":[-74.8375,35.53]},"properties":{"name":"The Point","symbol":"Rocks","region":"HatterasNC","source":"Fishing Status (fishingstatus.com)"}},{"type":"Feature","geometry":{"type":"Point","coordinates":[-75.02149,35.24595]},"properties":{"name":"Buxton Ledge","symbol":"Rocks","region":"HatterasNC","source":"Fishing Status (fishingstatus.com)"}},{"type":"Feature","geometry":{"type":"Point","coordinates":[-74.84416,35.62233]},"properties":{"name":"Tuna Hole","symbol":"Rocks","region":"HatterasNC","source":"Fishing Status (fishingstatus.com)"}},{"type":"Feature","geometry":{"type":"Point","coordinates":[-75.7398,34.95793]},"properties":{"name":"Ocracoke Rocks North","symbol":"Rocks","region":"HatterasNC","source":"Fishing Status (fishingstatus.com)"}},{"type":"Feature","geometry":{"type":"Point","coordinates":[-75.50673,34.86713]},"properties":{"name":"The Rock Pile Center","symbol":"Rocks","region":"HatterasNC","source":"Fishing Status (fishingstatus.com)"}},{"type":"Feature","geometry":{"type":"Point","coordinates":[-75.36532,35.33468]},"properties":{"name":"AVON ROCK","symbol":"Rocks","region":"HatterasNC","source":"Fishing Status (fishingstatus.com)"}},{"type":"Feature","geometry":{"type":"Point","coordinates":[-75.17192,35.14469]},"properties":{"name":"Frenzy Canyon","symbol":"Rocks","region":"HatterasNC","source":"Fishing Status (fishingstatus.com)"}},{"type":"Feature","geometry":{"type":"Point","coordinates":[-75.46313,34.92775]},"properties":{"name":"Hatteras Rocks","symbol":"Rocks","region":"HatterasNC","source":"Fishing Status (fishingstatus.com)"}},{"type":"Feature","geometry":{"type":"Point","coordinates":[-75.25017,35.55]},"properties":{"name":"Wimble Shoals Wreck","symbol":"Wreck","region":"HatterasNC","source":"Fishing Status (fishingstatus.com)"}},{"type":"Feature","geometry":{"type":"Point","coordinates":[-75.32928,34.89821]},"properties":{"name":"Nevado Hole","symbol":"Rocks","region":"HatterasNC","source":"Fishing Status (fishingstatus.com)"}},{"type":"Feature","geometry":{"type":"Point","coordinates":[-75.74645,34.90285]},"properties":{"name":"Ocracoke Rocks South","symbol":"Rocks","region":"HatterasNC","source":"Fishing Status (fishingstatus.com)"}},{"type":"Feature","geometry":{"type":"Point","coordinates":[-75.2355,34.98313]},"properties":{"name":"Hatteras Canyon Tip South","symbol":"Rocks","region":"HatterasNC","source":"Fishing Status (fishingstatus.com)"}},{"type":"Feature","geometry":{"type":"Point","coordinates":[-75.35728,35.7996]},"properties":{"name":"Platt Shoals","symbol":"Rocks","region":"HatterasNC","source":"Fishing Status (fishingstatus.com)"}},{"type":"Feature","geometry":{"type":"Point","coordinates":[-75.48613,34.87354]},"properties":{"name":"Ocracoke Rock Pile NE","symbol":"Rocks","region":"HatterasNC","source":"Fishing Status (fishingstatus.com)"}},{"type":"Feature","geometry":{"type":"Point","coordinates":[-74.91795,35.29917]},"properties":{"name":"Bigeye Hill","symbol":"Rocks","region":"HatterasNC","source":"Fishing Status (fishingstatus.com)"}},{"type":"Feature","geometry":{"type":"Point","coordinates":[-74.97618,35.21499]},"properties":{"name":"Bishops Sword","symbol":"Rocks","region":"HatterasNC","source":"Fishing Status (fishingstatus.com)"}},{"type":"Feature","geometry":{"type":"Point","coordinates":[-75.55793,35.09184]},"properties":{"name":"NORTHEASTERN","symbol":"Wreck","region":"HatterasNC","source":"Fishing Status (fishingstatus.com)"}},{"type":"Feature","geometry":{"type":"Point","coordinates":[-75.55006,34.80693]},"properties":{"name":"Portsmouth Hump","symbol":"Rocks","region":"HatterasNC","source":"Fishing Status (fishingstatus.com)"}},{"type":"Feature","geometry":{"type":"Point","coordinates":[-74.9623,35.3046]},"properties":{"name":"Loftin Canyon","symbol":"Rocks","region":"HatterasNC","source":"Fishing Status (fishingstatus.com)"}},{"type":"Feature","geometry":{"type":"Point","coordinates":[-74.85504,36.0292]},"properties":{"name":"Kitty Hawk Triangle 3","symbol":"Rocks","region":"HatterasNC","source":"Fishing Status (fishingstatus.com)"}},{"type":"Feature","geometry":{"type":"Point","coordinates":[-74.88805,35.39163]},"properties":{"name":"Duffie Canyon","symbol":"Rocks","region":"HatterasNC","source":"Fishing Status (fishingstatus.com)"}},{"type":"Feature","geometry":{"type":"Point","coordinates":[-75.32382,35.03555]},"properties":{"name":"210 Rocks","symbol":"Rocks","region":"HatterasNC","source":"Fishing Status (fishingstatus.com)"}},{"type":"Feature","geometry":{"type":"Point","coordinates":[-75.29788,34.9528]},"properties":{"name":"Niveis Hole","symbol":"Rocks","region":"HatterasNC","source":"Fishing Status (fishingstatus.com)"}},{"type":"Feature","geometry":{"type":"Point","coordinates":[-75.42983,34.98533]},"properties":{"name":"Squirrel Rock","symbol":"Rocks","region":"HatterasNC","source":"Fishing Status (fishingstatus.com)"}},{"type":"Feature","geometry":{"type":"Point","coordinates":[-75.5,35.2]},"properties":{"name":"Diamond Shoals","symbol":"Rocks","region":"HatterasNC","source":"Fishing Status (fishingstatus.com)"}},{"type":"Feature","geometry":{"type":"Point","coordinates":[-75.673,35.134]},"properties":{"name":"AR200 - CONCRETE RUBBLE","symbol":"Rocks","region":"HatterasNC","source":"Fishing Status (fishingstatus.com)"}},{"type":"Feature","geometry":{"type":"Point","coordinates":[-75.26785,35.05465]},"properties":{"name":"Southeast Rocks","symbol":"Rocks","region":"HatterasNC","source":"Fishing Status (fishingstatus.com)"}},{"type":"Feature","geometry":{"type":"Point","coordinates":[-75.1026,35.20322]},"properties":{"name":"350 Rocks","symbol":"Rocks","region":"HatterasNC","source":"Fishing Status (fishingstatus.com)"}},{"type":"Feature","geometry":{"type":"Point","coordinates":[-75.73985,34.73381]},"properties":{"name":"Four Sisters 4","symbol":"Rocks","region":"HatterasNC","source":"Fishing Status (fishingstatus.com)"}},{"type":"Feature","geometry":{"type":"Point","coordinates":[-75.35733,34.93206]},"properties":{"name":"70 Fathom Rock","symbol":"Rocks","region":"HatterasNC","source":"Fishing Status (fishingstatus.com)"}},{"type":"Feature","geometry":{"type":"Point","coordinates":[-75.40545,34.86069]},"properties":{"name":"Snowy Ledge","symbol":"Rocks","region":"HatterasNC","source":"Fishing Status (fishingstatus.com)"}},{"type":"Feature","geometry":{"type":"Point","coordinates":[-75.13279,35.03106]},"properties":{"name":"Long Hump","symbol":"Rocks","region":"HatterasNC","source":"Fishing Status (fishingstatus.com)"}},{"type":"Feature","geometry":{"type":"Point","coordinates":[-75.04503,35.12182]},"properties":{"name":"320 Fathom Hump","symbol":"Rocks","region":"HatterasNC","source":"Fishing Status (fishingstatus.com)"}},{"type":"Feature","geometry":{"type":"Point","coordinates":[-75.40488,34.86093]},"properties":{"name":"Snowy Tiles","symbol":"Rocks","region":"HatterasNC","source":"Fishing Status (fishingstatus.com)"}},{"type":"Feature","geometry":{"type":"Point","coordinates":[-75.6177,34.75808]},"properties":{"name":"YELLOWFIN-HOLE","symbol":"Rocks","region":"HatterasNC","source":"Fishing Status (fishingstatus.com)"}},{"type":"Feature","geometry":{"type":"Point","coordinates":[-75.19539,35.12007]},"properties":{"name":"290 Ledge","symbol":"Rocks","region":"HatterasNC","source":"Fishing Status (fishingstatus.com)"}},{"type":"Feature","geometry":{"type":"Point","coordinates":[-75.35177,34.85606]},"properties":{"name":"Hatteras Canyon North Ledge","symbol":"Rocks","region":"HatterasNC","source":"Fishing Status (fishingstatus.com)"}},{"type":"Feature","geometry":{"type":"Point","coordinates":[-75.24372,35.29119]},"properties":{"name":"Avon Hump","symbol":"Rocks","region":"HatterasNC","source":"Fishing Status (fishingstatus.com)"}},{"type":"Feature","geometry":{"type":"Point","coordinates":[-75.11871,36.01059]},"properties":{"name":"Memorial Rocks","symbol":"Rocks","region":"HatterasNC","source":"Fishing Status (fishingstatus.com)"}},{"type":"Feature","geometry":{"type":"Point","coordinates":[-75.17745,35.1344]},"properties":{"name":"300 Rocks","symbol":"Rocks","region":"HatterasNC","source":"Fishing Status (fishingstatus.com)"}},{"type":"Feature","geometry":{"type":"Point","coordinates":[-75.381,36.19228]},"properties":{"name":"Duck Hole","symbol":"Rocks","region":"HatterasNC","source":"Fishing Status (fishingstatus.com)"}},{"type":"Feature","geometry":{"type":"Point","coordinates":[-74.8748,35.95171]},"properties":{"name":"Nags Head Hump","symbol":"Rocks","region":"HatterasNC","source":"Fishing Status (fishingstatus.com)"}},{"type":"Feature","geometry":{"type":"Point","coordinates":[-75.49105,35.12125]},"properties":{"name":"Shoals Hump","symbol":"Rocks","region":"HatterasNC","source":"Fishing Status (fishingstatus.com)"}},{"type":"Feature","geometry":{"type":"Point","coordinates":[-74.83342,36.03531]},"properties":{"name":"Kitty Hawk Triangle 2","symbol":"Rocks","region":"HatterasNC","source":"Fishing Status (fishingstatus.com)"}},{"type":"Feature","geometry":{"type":"Point","coordinates":[-75.08162,36.28656]},"properties":{"name":"980 Hump","symbol":"Rocks","region":"HatterasNC","source":"Fishing Status (fishingstatus.com)"}},{"type":"Feature","geometry":{"type":"Point","coordinates":[-75.35292,35.18184]},"properties":{"name":"USS Virginia BB-13","symbol":"Wreck","region":"HatterasNC","source":"Fishing Status (fishingstatus.com)"}},{"type":"Feature","geometry":{"type":"Point","coordinates":[-74.84836,36.04448]},"properties":{"name":"Kitty Hawk Triangle 1","symbol":"Rocks","region":"HatterasNC","source":"Fishing Status (fishingstatus.com)"}},{"type":"Feature","geometry":{"type":"Point","coordinates":[-75.361,35.109]},"properties":{"name":"Hump","symbol":"Rocks","region":"HatterasNC","source":"Fishing Status (fishingstatus.com)"}},{"type":"Feature","geometry":{"type":"Point","coordinates":[-74.79717,36.35101]},"properties":{"name":"Corolla Rock","symbol":"Rocks","region":"HatterasNC","source":"Fishing Status (fishingstatus.com)"}},{"type":"Feature","geometry":{"type":"Point","coordinates":[-74.77558,35.54851]},"properties":{"name":"Keller Canyon","symbol":"Rocks","region":"HatterasNC","source":"Fishing Status (fishingstatus.com)"}},{"type":"Feature","geometry":{"type":"Point","coordinates":[-75.13881,35.16458]},"properties":{"name":"Tuna Rock","symbol":"Rocks","region":"HatterasNC","source":"Fishing Status (fishingstatus.com)"}},{"type":"Feature","geometry":{"type":"Point","coordinates":[-75.55917,34.63293]},"properties":{"name":"Deep Hump","symbol":"Rocks","region":"HatterasNC","source":"Fishing Status (fishingstatus.com)"}},{"type":"Feature","geometry":{"type":"Point","coordinates":[-75.38839,34.83332]},"properties":{"name":"Canyon Finger","symbol":"Rocks","region":"HatterasNC","source":"Fishing Status (fishingstatus.com)"}},{"type":"Feature","geometry":{"type":"Point","coordinates":[-74.86075,35.44992]},"properties":{"name":"Salvo Ledge","symbol":"Rocks","region":"HatterasNC","source":"Fishing Status (fishingstatus.com)"}},{"type":"Feature","geometry":{"type":"Point","coordinates":[-75.488,34.654]},"properties":{"name":"Southern Canyon Tip","symbol":"Rocks","region":"HatterasNC","source":"Fishing Status (fishingstatus.com)"}},{"type":"Feature","geometry":{"type":"Point","coordinates":[-75.11627,35.11677]},"properties":{"name":"W ROCKEFEL1","symbol":"Rocks","region":"HatterasNC","source":"Fishing Status (fishingstatus.com)"}},{"type":"Feature","geometry":{"type":"Point","coordinates":[-75.33292,35.08018]},"properties":{"name":"DIAMOND SHOAL NO. 71","symbol":"Wreck","region":"HatterasNC","source":"Fishing Status (fishingstatus.com)"}},{"type":"Feature","geometry":{"type":"Point","coordinates":[-75.40833,35.257]},"properties":{"name":"Southeast Rocks","symbol":"Rocks","region":"HatterasNC","source":"Fishing Status (fishingstatus.com)"}},{"type":"Feature","geometry":{"type":"Point","coordinates":[-75.49163,34.74104]},"properties":{"name":"GT HUMP","symbol":"Rocks","region":"HatterasNC","source":"Fishing Status (fishingstatus.com)"}},{"type":"Feature","geometry":{"type":"Point","coordinates":[-75.30347,35.15684]},"properties":{"name":"BRITISH SPLENDOUR","symbol":"Wreck","region":"HatterasNC","source":"Fishing Status (fishingstatus.com)"}},{"type":"Feature","geometry":{"type":"Point","coordinates":[-75.4067,35.00199]},"properties":{"name":"MONITOR","symbol":"Wreck","region":"HatterasNC","source":"Fishing Status (fishingstatus.com)"}},{"type":"Feature","geometry":{"type":"Point","coordinates":[-75.39917,35.89805]},"properties":{"name":"AR-1459","symbol":"Rocks","region":"HatterasNC","source":"Fishing Status (fishingstatus.com)"}},{"type":"Feature","geometry":{"type":"Point","coordinates":[-75.45699,34.77792]},"properties":{"name":"Golden Tilefish","symbol":"Rocks","region":"HatterasNC","source":"Fishing Status (fishingstatus.com)"}},{"type":"Feature","geometry":{"type":"Point","coordinates":[-75.42383,34.81399]},"properties":{"name":"Golden Tilefish","symbol":"Rocks","region":"HatterasNC","source":"Fishing Status (fishingstatus.com)"}},{"type":"Feature","geometry":{"type":"Point","coordinates":[-75.91339,34.94657]},"properties":{"name":"AR-2509","symbol":"Rocks","region":"HatterasNC","source":"Fishing Status (fishingstatus.com)"}},{"type":"Feature","geometry":{"type":"Point","coordinates":[-75.39972,35.89916]},"properties":{"name":"AR-1457","symbol":"Rocks","region":"HatterasNC","source":"Fishing Status (fishingstatus.com)"}},{"type":"Feature","geometry":{"type":"Point","coordinates":[-75.46101,35.13314]},"properties":{"name":"BIG-ROCK8","symbol":"Rocks","region":"HatterasNC","source":"Fishing Status (fishingstatus.com)"}},{"type":"Feature","geometry":{"type":"Point","coordinates":[-75.39166,35.14166]},"properties":{"name":"Point Shoals Buoy1","symbol":"Rocks","region":"HatterasNC","source":"Fishing Status (fishingstatus.com)"}},{"type":"Feature","geometry":{"type":"Point","coordinates":[-75.91353,34.94646]},"properties":{"name":"AR-2504","symbol":"Rocks","region":"HatterasNC","source":"Fishing Status (fishingstatus.com)"}},{"type":"Feature","geometry":{"type":"Point","coordinates":[-75.39888,35.89946]},"properties":{"name":"AR-1454","symbol":"Rocks","region":"HatterasNC","source":"Fishing Status (fishingstatus.com)"}},{"type":"Feature","geometry":{"type":"Point","coordinates":[-76.38883,33.9575]},"properties":{"name":"SWANSBORO HOLE","symbol":"Rocks","region":"MoreheadNC","source":"Fishing Status (fishingstatus.com)","fs_id":"1274467"}},{"type":"Feature","geometry":{"type":"Point","coordinates":[-76.33868,34.55196]},"properties":{"name":"1700 Rock","symbol":"Rocks","region":"MoreheadNC","source":"Fishing Status (fishingstatus.com)","fs_id":"5262"}},{"type":"Feature","geometry":{"type":"Point","coordinates":[-76.97576,34.57757]},"properties":{"name":"AR-340","symbol":"Rocks","region":"MoreheadNC","source":"Fishing Status (fishingstatus.com)","fs_id":"372484"}},{"type":"Feature","geometry":{"type":"Point","coordinates":[-77.3089,34.24338]},"properties":{"name":"Topsail Ledge","symbol":"Rocks","region":"MoreheadNC","source":"Fishing Status (fishingstatus.com)","fs_id":"6747"}},{"type":"Feature","geometry":{"type":"Point","coordinates":[-77.18163,34.05637]},"properties":{"name":"Cripple Rock","symbol":"Rocks","region":"MoreheadNC","source":"Fishing Status (fishingstatus.com)","fs_id":"5900"}},{"type":"Feature","geometry":{"type":"Point","coordinates":[-76.16676,34.62008]},"properties":{"name":"Chicken Rock","symbol":"Rocks","region":"MoreheadNC","source":"Fishing Status (fishingstatus.com)","fs_id":"880476"}},{"type":"Feature","geometry":{"type":"Point","coordinates":[-75.71392,34.64447]},"properties":{"name":"Portsmouth Point","symbol":"Rocks","region":"MoreheadNC","source":"Fishing Status (fishingstatus.com)","fs_id":"1113825"}},{"type":"Feature","geometry":{"type":"Point","coordinates":[-76.16301,34.60434]},"properties":{"name":"Captain Earls Rock","symbol":"Rocks","region":"MoreheadNC","source":"Fishing Status (fishingstatus.com)","fs_id":"1234169"}},{"type":"Feature","geometry":{"type":"Point","coordinates":[-76.13035,34.5997]},"properties":{"name":"Grouper Hole","symbol":"Rocks","region":"MoreheadNC","source":"Fishing Status (fishingstatus.com)","fs_id":"1254151"}},{"type":"Feature","geometry":{"type":"Point","coordinates":[-76.5,34.5]},"properties":{"name":"Cape Lookout Shoals","symbol":"Rocks","region":"MoreheadNC","source":"Fishing Status (fishingstatus.com)","fs_id":"1247656"}},{"type":"Feature","geometry":{"type":"Point","coordinates":[-76.40128,34.54537]},"properties":{"name":"30 Minute Rock","symbol":"Rocks","region":"MoreheadNC","source":"Fishing Status (fishingstatus.com)","fs_id":"5283"}},{"type":"Feature","geometry":{"type":"Point","coordinates":[-77.03332,34.62932]},"properties":{"name":"Keypost Rock","symbol":"Rocks","region":"MoreheadNC","source":"Fishing Status (fishingstatus.com)","fs_id":"5994"}},{"type":"Feature","geometry":{"type":"Point","coordinates":[-76.19013,34.30193]},"properties":{"name":"Grouper Drop","symbol":"Rocks","region":"MoreheadNC","source":"Fishing Status (fishingstatus.com)","fs_id":"1254147"}},{"type":"Feature","geometry":{"type":"Point","coordinates":[-75.77315,34.57942]},"properties":{"name":"Portsmouth Ledge 1","symbol":"Wreck","region":"MoreheadNC","source":"Fishing Status (fishingstatus.com)","fs_id":"1113820"}},{"type":"Feature","geometry":{"type":"Point","coordinates":[-75.82077,34.54424]},"properties":{"name":"850 Rocks","symbol":"Rocks","region":"MoreheadNC","source":"Fishing Status (fishingstatus.com)","fs_id":"1219175"}},{"type":"Feature","geometry":{"type":"Point","coordinates":[-76.37446,34.7011]},"properties":{"name":"Horsepen Ledge","symbol":"Rocks","region":"MoreheadNC","source":"Fishing Status (fishingstatus.com)","fs_id":"1234166"}},{"type":"Feature","geometry":{"type":"Point","coordinates":[-77.30943,34.2436]},"properties":{"name":"TOPSAIL LEDGE OFFSHORE","symbol":"Rocks","region":"MoreheadNC","source":"Fishing Status (fishingstatus.com)","fs_id":"1381368"}},{"type":"Feature","geometry":{"type":"Point","coordinates":[-77.03388,34.495]},"properties":{"name":"SE Bottoms 1","symbol":"Rocks","region":"MoreheadNC","source":"Fishing Status (fishingstatus.com)","fs_id":"1372460"}},{"type":"Feature","geometry":{"type":"Point","coordinates":[-76.93546,34.46039]},"properties":{"name":"Stanmans Rock","symbol":"Rocks","region":"MoreheadNC","source":"Fishing Status (fishingstatus.com)","fs_id":"1381652"}},{"type":"Feature","geometry":{"type":"Point","coordinates":[-75.77647,34.35057]},"properties":{"name":"Polonius","symbol":"Rocks","region":"MoreheadNC","source":"Fishing Status (fishingstatus.com)","fs_id":"1231776"}},{"type":"Feature","geometry":{"type":"Point","coordinates":[-76.82054,34.70803]},"properties":{"name":"Pine Knoll Hole","symbol":"Rocks","region":"MoreheadNC","source":"Fishing Status (fishingstatus.com)","fs_id":"1150061"}},{"type":"Feature","geometry":{"type":"Point","coordinates":[-76.61075,34.59903]},"properties":{"name":"OBSTRUCTION","symbol":"Wreck","region":"MoreheadNC","source":"Fishing Status (fishingstatus.com)","fs_id":"809140"}},{"type":"Feature","geometry":{"type":"Point","coordinates":[-76.59276,34.64596]},"properties":{"name":"DEAD TREE HOLE AREA","symbol":"Rocks","region":"MoreheadNC","source":"Fishing Status (fishingstatus.com)","fs_id":"1381300"}},{"type":"Feature","geometry":{"type":"Point","coordinates":[-76.5268,34.1132]},"properties":{"name":"Rock Hind","symbol":"Rocks","region":"MoreheadNC","source":"Fishing Status (fishingstatus.com)","fs_id":"1444489"}},{"type":"Feature","geometry":{"type":"Point","coordinates":[-75.728,34.62131]},"properties":{"name":"Portsmouth Ledge 3","symbol":"Rocks","region":"MoreheadNC","source":"Fishing Status (fishingstatus.com)","fs_id":"1113824"}},{"type":"Feature","geometry":{"type":"Point","coordinates":[-76.446,33.88166]},"properties":{"name":"YELLOWFIN HOLE","symbol":"Rocks","region":"MoreheadNC","source":"Fishing Status (fishingstatus.com)","fs_id":"919150"}},{"type":"Feature","geometry":{"type":"Point","coordinates":[-75.95617,34.37417]},"properties":{"name":"Ledge","symbol":"Rocks","region":"MoreheadNC","source":"Fishing Status (fishingstatus.com)","fs_id":"1319602"}},{"type":"Feature","geometry":{"type":"Point","coordinates":[-76.10007,34.37206]},"properties":{"name":"Rooster Rock","symbol":"Rocks","region":"MoreheadNC","source":"Fishing Status (fishingstatus.com)","fs_id":"5891"}},{"type":"Feature","geometry":{"type":"Point","coordinates":[-76.63583,34.26948]},"properties":{"name":"240 Rock","symbol":"Rocks","region":"MoreheadNC","source":"Fishing Status (fishingstatus.com)","fs_id":"1312315"}},{"type":"Feature","geometry":{"type":"Point","coordinates":[-76.36255,34.6941]},"properties":{"name":"Sampsons Ledge","symbol":"Rocks","region":"MoreheadNC","source":"Fishing Status (fishingstatus.com)","fs_id":"1234167"}},{"type":"Feature","geometry":{"type":"Point","coordinates":[-76.1728,34.15339]},"properties":{"name":"Big Rock","symbol":"Rocks","region":"MoreheadNC","source":"Fishing Status (fishingstatus.com)","fs_id":"585264"}},{"type":"Feature","geometry":{"type":"Point","coordinates":[-75.74817,34.6021]},"properties":{"name":"Portsmouth Ledge 2","symbol":"Rocks","region":"MoreheadNC","source":"Fishing Status (fishingstatus.com)","fs_id":"1113821"}},{"type":"Feature","geometry":{"type":"Point","coordinates":[-76.55997,34.61822]},"properties":{"name":"Jetty","symbol":"Rocks","region":"MoreheadNC","source":"Fishing Status (fishingstatus.com)","fs_id":"1219472"}},{"type":"Feature","geometry":{"type":"Point","coordinates":[-75.71827,34.48007]},"properties":{"name":"Ramseys Ledge","symbol":"Rocks","region":"MoreheadNC","source":"Fishing Status (fishingstatus.com)","fs_id":"1231777"}},{"type":"Feature","geometry":{"type":"Point","coordinates":[-76.48525,33.86752]},"properties":{"name":"Emerald Ledge","symbol":"Rocks","region":"MoreheadNC","source":"Fishing Status (fishingstatus.com)","fs_id":"1216426"}},{"type":"Feature","geometry":{"type":"Point","coordinates":[-77.15282,34.65309]},"properties":{"name":"Jerrys Hole","symbol":"Rocks","region":"MoreheadNC","source":"Fishing Status (fishingstatus.com)","fs_id":"1245090"}},{"type":"Feature","geometry":{"type":"Point","coordinates":[-76.38434,34.24327]},"properties":{"name":"ROCKS","symbol":"Rocks","region":"MoreheadNC","source":"Fishing Status (fishingstatus.com)","fs_id":"1381375"}},{"type":"Feature","geometry":{"type":"Point","coordinates":[-76.73781,34.71906]},"properties":{"name":"Atlantic Beach Bridge Point","symbol":"Rocks","region":"MoreheadNC","source":"Fishing Status (fishingstatus.com)","fs_id":"1150010"}},{"type":"Feature","geometry":{"type":"Point","coordinates":[-76.16078,33.95904]},"properties":{"name":"Neigeux Hole","symbol":"Rocks","region":"MoreheadNC","source":"Fishing Status (fishingstatus.com)","fs_id":"1231424"}},{"type":"Feature","geometry":{"type":"Point","coordinates":[-76.40118,34.57271]},"properties":{"name":"Rocky Area","symbol":"Rocks","region":"MoreheadNC","source":"Fishing Status (fishingstatus.com)","fs_id":"1236195"}},{"type":"Feature","geometry":{"type":"Point","coordinates":[-76.26467,33.97499]},"properties":{"name":"710 Hole","symbol":"Rocks","region":"MoreheadNC","source":"Fishing Status (fishingstatus.com)","fs_id":"5314"}},{"type":"Feature","geometry":{"type":"Point","coordinates":[-76.60167,33.9]},"properties":{"name":"AMERICAN RED HOLE","symbol":"Rocks","region":"MoreheadNC","source":"Fishing Status (fishingstatus.com)","fs_id":"6244"}},{"type":"Feature","geometry":{"type":"Point","coordinates":[-77.03182,34.63636]},"properties":{"name":"KEYPOST 1 ROCKS","symbol":"Rocks","region":"MoreheadNC","source":"Fishing Status (fishingstatus.com)","fs_id":"1381326"}},{"type":"Feature","geometry":{"type":"Point","coordinates":[-76.78087,33.67527]},"properties":{"name":"Devil's A-Hole","symbol":"Rocks","region":"MoreheadNC","source":"Fishing Status (fishingstatus.com)","fs_id":"5908"}},{"type":"Feature","geometry":{"type":"Point","coordinates":[-76.16677,34.62008]},"properties":{"name":"ChickeRock","symbol":"Rocks","region":"MoreheadNC","source":"Fishing Status (fishingstatus.com)","fs_id":"1274449"}},{"type":"Feature","geometry":{"type":"Point","coordinates":[-76.15833,34.177]},"properties":{"name":"BIG ROCK NE 258'","symbol":"Rocks","region":"MoreheadNC","source":"Fishing Status (fishingstatus.com)","fs_id":"1274466"}},{"type":"Feature","geometry":{"type":"Point","coordinates":[-76.25455,34.21094]},"properties":{"name":"90 FOOT DROP LEDGE","symbol":"Rocks","region":"MoreheadNC","source":"Fishing Status (fishingstatus.com)","fs_id":"1381285"}},{"type":"Feature","geometry":{"type":"Point","coordinates":[-76.6667,34.05]},"properties":{"name":"Rock Hind","symbol":"Rocks","region":"MoreheadNC","source":"Fishing Status (fishingstatus.com)","fs_id":"1444491"}},{"type":"Feature","geometry":{"type":"Point","coordinates":[-77.01258,34.63568]},"properties":{"name":"45 Minute Rocks","symbol":"Rocks","region":"MoreheadNC","source":"Fishing Status (fishingstatus.com)","fs_id":"1312253"}},{"type":"Feature","geometry":{"type":"Point","coordinates":[-76.19971,34.14519]},"properties":{"name":"CLO-005","symbol":"Rocks","region":"MoreheadNC","source":"Fishing Status (fishingstatus.com)","fs_id":"1247119"}},{"type":"Feature","geometry":{"type":"Point","coordinates":[-77.14776,34.54586]},"properties":{"name":"Rock","symbol":"Rocks","region":"MoreheadNC","source":"Fishing Status (fishingstatus.com)","fs_id":"1236194"}},{"type":"Feature","geometry":{"type":"Point","coordinates":[-76.35583,34.51133]},"properties":{"name":"EAST ROCK INSHORE BEAUFORT INLET","symbol":"Rocks","region":"MoreheadNC","source":"Fishing Status (fishingstatus.com)","fs_id":"1274432"}},{"type":"Feature","geometry":{"type":"Point","coordinates":[-77.10833,33.845]},"properties":{"name":"FORTY MILE ROCK","symbol":"Rocks","region":"MoreheadNC","source":"Fishing Status (fishingstatus.com)","fs_id":"6230"}},{"type":"Feature","geometry":{"type":"Point","coordinates":[-75.87863,34.69373]},"properties":{"name":"Four Sisters 2","symbol":"Rocks","region":"MoreheadNC","source":"Fishing Status (fishingstatus.com)","fs_id":"1254142"}},{"type":"Feature","geometry":{"type":"Point","coordinates":[-76.2085,34.1585]},"properties":{"name":"Big Rock","symbol":"Rocks","region":"MoreheadNC","source":"Fishing Status (fishingstatus.com)","fs_id":"582759"}},{"type":"Feature","geometry":{"type":"Point","coordinates":[-76.21652,34.16259]},"properties":{"name":"CLO-004","symbol":"Rocks","region":"MoreheadNC","source":"Fishing Status (fishingstatus.com)","fs_id":"1247118"}},{"type":"Feature","geometry":{"type":"Point","coordinates":[-76.99738,34.49663]},"properties":{"name":"Rodneys Spot","symbol":"Rocks","region":"MoreheadNC","source":"Fishing Status (fishingstatus.com)","fs_id":"1236170"}},{"type":"Feature","geometry":{"type":"Point","coordinates":[-77.06517,34.58733]},"properties":{"name":"STATION ROCK","symbol":"Rocks","region":"MoreheadNC","source":"Fishing Status (fishingstatus.com)","fs_id":"6305"}},{"type":"Feature","geometry":{"type":"Point","coordinates":[-75.92815,34.63953]},"properties":{"name":"Four Sisters 1","symbol":"Rocks","region":"MoreheadNC","source":"Fishing Status (fishingstatus.com)","fs_id":"1254141"}},{"type":"Feature","geometry":{"type":"Point","coordinates":[-76.89287,34.40065]},"properties":{"name":"Little Big Rock","symbol":"Rocks","region":"MoreheadNC","source":"Fishing Status (fishingstatus.com)","fs_id":"1312276"}},{"type":"Feature","geometry":{"type":"Point","coordinates":[-76.63518,34.28127]},"properties":{"name":"240 Rock","symbol":"Rocks","region":"MoreheadNC","source":"Fishing Status (fishingstatus.com)","fs_id":"5275"}},{"type":"Feature","geometry":{"type":"Point","coordinates":[-76.40404,34.57407]},"properties":{"name":"ROCKS","symbol":"Rocks","region":"MoreheadNC","source":"Fishing Status (fishingstatus.com)","fs_id":"1381383"}},{"type":"Feature","geometry":{"type":"Point","coordinates":[-76.3999,34.43362]},"properties":{"name":"Lookout Ledge","symbol":"Rocks","region":"MoreheadNC","source":"Fishing Status (fishingstatus.com)","fs_id":"1236180"}},{"type":"Feature","geometry":{"type":"Point","coordinates":[-76.55037,33.83003]},"properties":{"name":"Swansboro Hole","symbol":"Rocks","region":"MoreheadNC","source":"Fishing Status (fishingstatus.com)","fs_id":"585263"}},{"type":"Feature","geometry":{"type":"Point","coordinates":[-76.58754,34.24731]},"properties":{"name":"210 ROCK","symbol":"Rocks","region":"MoreheadNC","source":"Fishing Status (fishingstatus.com)","fs_id":"1381277"}},{"type":"Feature","geometry":{"type":"Point","coordinates":[-76.44613,33.88182]},"properties":{"name":"YELLOWFIN HOLE","symbol":"Rocks","region":"MoreheadNC","source":"Fishing Status (fishingstatus.com)","fs_id":"1381385"}},{"type":"Feature","geometry":{"type":"Point","coordinates":[-76.99167,34.04133]},"properties":{"name":"TWELVE FOOT LEDGE","symbol":"Rocks","region":"MoreheadNC","source":"Fishing Status (fishingstatus.com)","fs_id":"6206"}},{"type":"Feature","geometry":{"type":"Point","coordinates":[-76.90118,34.44155]},"properties":{"name":"Rocky Area","symbol":"Rocks","region":"MoreheadNC","source":"Fishing Status (fishingstatus.com)","fs_id":"1236181"}},{"type":"Feature","geometry":{"type":"Point","coordinates":[-76.81011,34.66239]},"properties":{"name":"OBSTRUCTION","symbol":"Rocks","region":"MoreheadNC","source":"Fishing Status (fishingstatus.com)","fs_id":"809135"}},{"type":"Feature","geometry":{"type":"Point","coordinates":[-76.70636,34.44998]},"properties":{"name":"195 Degree Rock","symbol":"Rocks","region":"MoreheadNC","source":"Fishing Status (fishingstatus.com)","fs_id":"1236183"}},{"type":"Feature","geometry":{"type":"Point","coordinates":[-76.8076,34.51067]},"properties":{"name":"Rocks","symbol":"Rocks","region":"MoreheadNC","source":"Fishing Status (fishingstatus.com)","fs_id":"1312279"}},{"type":"Feature","geometry":{"type":"Point","coordinates":[-76.8055,34.66006]},"properties":{"name":"OBSTRUCTION","symbol":"Rocks","region":"MoreheadNC","source":"Fishing Status (fishingstatus.com)","fs_id":"809130"}},{"type":"Feature","geometry":{"type":"Point","coordinates":[-76.30583,34.30691]},"properties":{"name":"CLO-003","symbol":"Rocks","region":"MoreheadNC","source":"Fishing Status (fishingstatus.com)","fs_id":"1247115"}},{"type":"Feature","geometry":{"type":"Point","coordinates":[-76.55,34.325]},"properties":{"name":"10 Fathom Ledge","symbol":"Rocks","region":"MoreheadNC","source":"Fishing Status (fishingstatus.com)","fs_id":"582758"}},{"type":"Feature","geometry":{"type":"Point","coordinates":[-77.0278,34.44251]},"properties":{"name":"Continental Rocks","symbol":"Rocks","region":"MoreheadNC","source":"Fishing Status (fishingstatus.com)","fs_id":"1236182"}},{"type":"Feature","geometry":{"type":"Point","coordinates":[-76.37858,34.34848]},"properties":{"name":"Rocks","symbol":"Rocks","region":"MoreheadNC","source":"Fishing Status (fishingstatus.com)","fs_id":"1312339"}},{"type":"Feature","geometry":{"type":"Point","coordinates":[-77.15867,34.39233]},"properties":{"name":"CHRISTMAS ROCK","symbol":"Rocks","region":"MoreheadNC","source":"Fishing Status (fishingstatus.com)","fs_id":"6460"}},{"type":"Feature","geometry":{"type":"Point","coordinates":[-76.889,34.3883]},"properties":{"name":"Alberts Rocks","symbol":"Rocks","region":"MoreheadNC","source":"Fishing Status (fishingstatus.com)","fs_id":"1236172"}},{"type":"Feature","geometry":{"type":"Point","coordinates":[-77.09832,34.53085]},"properties":{"name":"Lost Rocks","symbol":"Rocks","region":"MoreheadNC","source":"Fishing Status (fishingstatus.com)","fs_id":"1312281"}},{"type":"Feature","geometry":{"type":"Point","coordinates":[-76.46965,34.43338]},"properties":{"name":"SHOALWRECK","symbol":"Wreck","region":"MoreheadNC","source":"Fishing Status (fishingstatus.com)","fs_id":"1413657"}},{"type":"Feature","geometry":{"type":"Point","coordinates":[-76.42945,33.8637]},"properties":{"name":"Swansboro Hole","symbol":"Rocks","region":"MoreheadNC","source":"Fishing Status (fishingstatus.com)","fs_id":"6153"}},{"type":"Feature","geometry":{"type":"Point","coordinates":[-76.3897,34.21585]},"properties":{"name":"Corner Rocks","symbol":"Rocks","region":"MoreheadNC","source":"Fishing Status (fishingstatus.com)","fs_id":"1312296"}},{"type":"Feature","geometry":{"type":"Point","coordinates":[-76.67749,34.456]},"properties":{"name":"East Rock1","symbol":"Rocks","region":"MoreheadNC","source":"Fishing Status (fishingstatus.com)","fs_id":"5919"}},{"type":"Feature","geometry":{"type":"Point","coordinates":[-76.37189,34.51861]},"properties":{"name":"ES-007","symbol":"Rocks","region":"MoreheadNC","source":"Fishing Status (fishingstatus.com)","fs_id":"1247108"}},{"type":"Feature","geometry":{"type":"Point","coordinates":[-77.14997,34.5699]},"properties":{"name":"Bear Rock","symbol":"Rocks","region":"MoreheadNC","source":"Fishing Status (fishingstatus.com)","fs_id":"5851"}},{"type":"Feature","geometry":{"type":"Point","coordinates":[-76.42783,34.49115]},"properties":{"name":"Stebbins Ledge","symbol":"Rocks","region":"MoreheadNC","source":"Fishing Status (fishingstatus.com)","fs_id":"1236185"}},{"type":"Feature","geometry":{"type":"Point","coordinates":[-76.55688,34.35785]},"properties":{"name":"Corner Rocks","symbol":"Rocks","region":"MoreheadNC","source":"Fishing Status (fishingstatus.com)","fs_id":"1312341"}},{"type":"Feature","geometry":{"type":"Point","coordinates":[-75.63743,34.52629]},"properties":{"name":"Hump","symbol":"Rocks","region":"MoreheadNC","source":"Fishing Status (fishingstatus.com)","fs_id":"1304107"}},{"type":"Feature","geometry":{"type":"Point","coordinates":[-77.15815,34.39069]},"properties":{"name":"XMAS-ROCK62","symbol":"Rocks","region":"MoreheadNC","source":"Fishing Status (fishingstatus.com)","fs_id":"1543158"}},{"type":"Feature","geometry":{"type":"Point","coordinates":[-76.05437,34.14778]},"properties":{"name":"Big Hump","symbol":"Rocks","region":"MoreheadNC","source":"Fishing Status (fishingstatus.com)","fs_id":"1221758"}},{"type":"Feature","geometry":{"type":"Point","coordinates":[-77.00388,34.50277]},"properties":{"name":"SE Bottoms 2","symbol":"Rocks","region":"MoreheadNC","source":"Fishing Status (fishingstatus.com)","fs_id":"1372849"}},{"type":"Feature","geometry":{"type":"Point","coordinates":[-77.14867,34.458]},"properties":{"name":"HONEYMOOROCK 54'","symbol":"Rocks","region":"MoreheadNC","source":"Fishing Status (fishingstatus.com)","fs_id":"1274455"}},{"type":"Feature","geometry":{"type":"Point","coordinates":[-76.9434,34.58635]},"properties":{"name":"East Rocks","symbol":"Rocks","region":"MoreheadNC","source":"Fishing Status (fishingstatus.com)","fs_id":"1312249"}},{"type":"Feature","geometry":{"type":"Point","coordinates":[-76.37643,34.35155]},"properties":{"name":"Rocks","symbol":"Rocks","region":"MoreheadNC","source":"Fishing Status (fishingstatus.com)","fs_id":"1312340"}},{"type":"Feature","geometry":{"type":"Point","coordinates":[-76.50832,34.41973]},"properties":{"name":"Southwest Rock","symbol":"Rocks","region":"MoreheadNC","source":"Fishing Status (fishingstatus.com)","fs_id":"1312277"}},{"type":"Feature","geometry":{"type":"Point","coordinates":[-76.12901,34.18565]},"properties":{"name":"Bobs Rock","symbol":"Rocks","region":"MoreheadNC","source":"Fishing Status (fishingstatus.com)","fs_id":"1247117"}},{"type":"Feature","geometry":{"type":"Point","coordinates":[-76.62707,34.27835]},"properties":{"name":"240 Rock","symbol":"Rocks","region":"MoreheadNC","source":"Fishing Status (fishingstatus.com)","fs_id":"1312319"}},{"type":"Feature","geometry":{"type":"Point","coordinates":[-76.98433,34.39218]},"properties":{"name":"Ledges","symbol":"Rocks","region":"MoreheadNC","source":"Fishing Status (fishingstatus.com)","fs_id":"1236173"}},{"type":"Feature","geometry":{"type":"Point","coordinates":[-76.41253,34.48289]},"properties":{"name":"Frances Spot","symbol":"Rocks","region":"MoreheadNC","source":"Fishing Status (fishingstatus.com)","fs_id":"1247109"}},{"type":"Feature","geometry":{"type":"Point","coordinates":[-77.153,34.38033]},"properties":{"name":"CHRISTMAS ROCK","symbol":"Rocks","region":"MoreheadNC","source":"Fishing Status (fishingstatus.com)","fs_id":"6679"}},{"type":"Feature","geometry":{"type":"Point","coordinates":[-76.89685,34.38663]},"properties":{"name":"Rocky Area","symbol":"Rocks","region":"MoreheadNC","source":"Fishing Status (fishingstatus.com)","fs_id":"1236171"}},{"type":"Feature","geometry":{"type":"Point","coordinates":[-76.07455,34.2069]},"properties":{"name":"NE BIGROCK","symbol":"Rocks","region":"MoreheadNC","source":"Fishing Status (fishingstatus.com)","fs_id":"1413370"}},{"type":"Feature","geometry":{"type":"Point","coordinates":[-76.88737,34.48199]},"properties":{"name":"ROCKS","symbol":"Rocks","region":"MoreheadNC","source":"Fishing Status (fishingstatus.com)","fs_id":"1381382"}},{"type":"Feature","geometry":{"type":"Point","coordinates":[-76.49325,34.42415]},"properties":{"name":"100 Degree Rock","symbol":"Rocks","region":"MoreheadNC","source":"Fishing Status (fishingstatus.com)","fs_id":"1236175"}},{"type":"Feature","geometry":{"type":"Point","coordinates":[-77.15608,34.38885]},"properties":{"name":"Christmas Rocks","symbol":"Rocks","region":"MoreheadNC","source":"Fishing Status (fishingstatus.com)","fs_id":"1312272"}},{"type":"Feature","geometry":{"type":"Point","coordinates":[-76.33342,34.55537]},"properties":{"name":"1700 Rock No 2","symbol":"Rocks","region":"MoreheadNC","source":"Fishing Status (fishingstatus.com)","fs_id":"1312290"}},{"type":"Feature","geometry":{"type":"Point","coordinates":[-77.06172,34.5543]},"properties":{"name":"NW 45 Minute Rock","symbol":"Rocks","region":"MoreheadNC","source":"Fishing Status (fishingstatus.com)","fs_id":"1312289"}},{"type":"Feature","geometry":{"type":"Point","coordinates":[-76.44593,34.46601]},"properties":{"name":"Stebbins Drop","symbol":"Rocks","region":"MoreheadNC","source":"Fishing Status (fishingstatus.com)","fs_id":"1236184"}},{"type":"Feature","geometry":{"type":"Point","coordinates":[-76.90337,34.43215]},"properties":{"name":"18 MILE LEDGE","symbol":"Rocks","region":"MoreheadNC","source":"Fishing Status (fishingstatus.com)","fs_id":"1381274"}},{"type":"Feature","geometry":{"type":"Point","coordinates":[-77.14866,34.45799]},"properties":{"name":"Honeymoon Rock","symbol":"Rocks","region":"MoreheadNC","source":"Fishing Status (fishingstatus.com)","fs_id":"5960"}},{"type":"Feature","geometry":{"type":"Point","coordinates":[-76.3358,34.54862]},"properties":{"name":"1700 Rock No 1","symbol":"Rocks","region":"MoreheadNC","source":"Fishing Status (fishingstatus.com)","fs_id":"1312287"}},{"type":"Feature","geometry":{"type":"Point","coordinates":[-76.7411,34.67347]},"properties":{"name":"UNKNOWN","symbol":"Wreck","region":"MoreheadNC","source":"Fishing Status (fishingstatus.com)","fs_id":"574120"}},{"type":"Feature","geometry":{"type":"Point","coordinates":[-76.14602,33.88113]},"properties":{"name":"Durandal","symbol":"Rocks","region":"MoreheadNC","source":"Fishing Status (fishingstatus.com)","fs_id":"1226011"}},{"type":"Feature","geometry":{"type":"Point","coordinates":[-77.14792,34.56705]},"properties":{"name":"Bear Inlet Rocks","symbol":"Rocks","region":"MoreheadNC","source":"Fishing Status (fishingstatus.com)","fs_id":"1312293"}},{"type":"Feature","geometry":{"type":"Point","coordinates":[-76.339,34.55167]},"properties":{"name":"1700 Rock1","symbol":"Rocks","region":"MoreheadNC","source":"Fishing Status (fishingstatus.com)","fs_id":"5263"}},{"type":"Feature","geometry":{"type":"Point","coordinates":[-77.05262,34.54848]},"properties":{"name":"45 Minute Rocks","symbol":"Rocks","region":"MoreheadNC","source":"Fishing Status (fishingstatus.com)","fs_id":"1312286"}},{"type":"Feature","geometry":{"type":"Point","coordinates":[-76.82893,34.69332]},"properties":{"name":"PINE KNOLL SHORES PUBLIC BEACH ACCESS \"F\"","symbol":"Rocks","region":"MoreheadNC","source":"Fishing Status (fishingstatus.com)","fs_id":"1850032"}},{"type":"Feature","geometry":{"type":"Point","coordinates":[-76.43274,34.19499]},"properties":{"name":"Beeliner and Grouper","symbol":"Rocks","region":"MoreheadNC","source":"Fishing Status (fishingstatus.com)","fs_id":"1413759"}},{"type":"Feature","geometry":{"type":"Point","coordinates":[-76.33587,34.5589]},"properties":{"name":"1700 Rock No 3","symbol":"Rocks","region":"MoreheadNC","source":"Fishing Status (fishingstatus.com)","fs_id":"1312292"}},{"type":"Feature","geometry":{"type":"Point","coordinates":[-76.40072,34.42088]},"properties":{"name":"LEDGE","symbol":"Rocks","region":"MoreheadNC","source":"Fishing Status (fishingstatus.com)","fs_id":"1247110"}},{"type":"Feature","geometry":{"type":"Point","coordinates":[-76.90001,34.42793]},"properties":{"name":"Ledge","symbol":"Rocks","region":"MoreheadNC","source":"Fishing Status (fishingstatus.com)","fs_id":"1236177"}},{"type":"Feature","geometry":{"type":"Point","coordinates":[-76.90433,34.47517]},"properties":{"name":"ROCK SOUTH OF 13 BUOY","symbol":"Rocks","region":"MoreheadNC","source":"Fishing Status (fishingstatus.com)","fs_id":"6490"}},{"type":"Feature","geometry":{"type":"Point","coordinates":[-76.33757,34.5496]},"properties":{"name":"1700 Rock","symbol":"Rocks","region":"MoreheadNC","source":"Fishing Status (fishingstatus.com)","fs_id":"1312288"}},{"type":"Feature","geometry":{"type":"Point","coordinates":[-77.09831,34.53085]},"properties":{"name":"Lost Rocks","symbol":"Rocks","region":"MoreheadNC","source":"Fishing Status (fishingstatus.com)","fs_id":"1236188"}},{"type":"Feature","geometry":{"type":"Point","coordinates":[-76.1577,34.46855]},"properties":{"name":"FOUR MILE ROCK1","symbol":"Rocks","region":"MoreheadNC","source":"Fishing Status (fishingstatus.com)","fs_id":"5938"}},{"type":"Feature","geometry":{"type":"Point","coordinates":[-76.74305,34.67305]},"properties":{"name":"AR-3155","symbol":"Rocks","region":"MoreheadNC","source":"Fishing Status (fishingstatus.com)","fs_id":"5473"}},{"type":"Feature","geometry":{"type":"Point","coordinates":[-76.56243,34.6192]},"properties":{"name":"R2 - ROCK","symbol":"Rocks","region":"MoreheadNC","source":"Fishing Status (fishingstatus.com)","fs_id":"1413618"}},{"type":"Feature","geometry":{"type":"Point","coordinates":[-76.3989,34.54368]},"properties":{"name":"30 Minute Rock","symbol":"Rocks","region":"MoreheadNC","source":"Fishing Status (fishingstatus.com)","fs_id":"1312283"}},{"type":"Feature","geometry":{"type":"Point","coordinates":[-76.25342,34.20937]},"properties":{"name":"90 Ft Ledge","symbol":"Rocks","region":"MoreheadNC","source":"Fishing Status (fishingstatus.com)","fs_id":"1312295"}},{"type":"Feature","geometry":{"type":"Point","coordinates":[-76.48752,34.75399]},"properties":{"name":"Rocks186","symbol":"Rocks","region":"MoreheadNC","source":"Fishing Status (fishingstatus.com)","fs_id":"1642639"}},{"type":"Feature","geometry":{"type":"Point","coordinates":[-77.02473,34.42728]},"properties":{"name":"Carters Rocks","symbol":"Rocks","region":"MoreheadNC","source":"Fishing Status (fishingstatus.com)","fs_id":"1236176"}},{"type":"Feature","geometry":{"type":"Point","coordinates":[-76.592,34.242]},"properties":{"name":"210 Ledge","symbol":"Rocks","region":"MoreheadNC","source":"Fishing Status (fishingstatus.com)","fs_id":"1339697"}},{"type":"Feature","geometry":{"type":"Point","coordinates":[-76.58808,34.38365]},"properties":{"name":"Big 10 Rock","symbol":"Rocks","region":"MoreheadNC","source":"Fishing Status (fishingstatus.com)","fs_id":"1312270"}},{"type":"Feature","geometry":{"type":"Point","coordinates":[-76.89713,34.03097]},"properties":{"name":"Red Grouper","symbol":"Rocks","region":"MoreheadNC","source":"Fishing Status (fishingstatus.com)","fs_id":"1413532"}},{"type":"Feature","geometry":{"type":"Point","coordinates":[-76.44153,34.43655]},"properties":{"name":"120 Degree Rock","symbol":"Rocks","region":"MoreheadNC","source":"Fishing Status (fishingstatus.com)","fs_id":"1236178"}},{"type":"Feature","geometry":{"type":"Point","coordinates":[-76.4005,34.54533]},"properties":{"name":"30 Min Rock","symbol":"Rocks","region":"MoreheadNC","source":"Fishing Status (fishingstatus.com)","fs_id":"5282"}},{"type":"Feature","geometry":{"type":"Point","coordinates":[-76.58945,34.2357]},"properties":{"name":"210 Degree Rock","symbol":"Rocks","region":"MoreheadNC","source":"Fishing Status (fishingstatus.com)","fs_id":"1312303"}},{"type":"Feature","geometry":{"type":"Point","coordinates":[-76.20833,34.07167]},"properties":{"name":"BIG ROCK SE","symbol":"Rocks","region":"MoreheadNC","source":"Fishing Status (fishingstatus.com)","fs_id":"6342"}},{"type":"Feature","geometry":{"type":"Point","coordinates":[-76.90416,34.2835]},"properties":{"name":"6 Ledge","symbol":"Rocks","region":"MoreheadNC","source":"Fishing Status (fishingstatus.com)","fs_id":"5297"}},{"type":"Feature","geometry":{"type":"Point","coordinates":[-76.11,34.0825]},"properties":{"name":"BIG ROCKA","symbol":"Rocks","region":"MoreheadNC","source":"Fishing Status (fishingstatus.com)","fs_id":"1412990"}},{"type":"Feature","geometry":{"type":"Point","coordinates":[-76.875,34.025]},"properties":{"name":"THREE FOOT LEDGE","symbol":"Rocks","region":"MoreheadNC","source":"Fishing Status (fishingstatus.com)","fs_id":"6210"}},{"type":"Feature","geometry":{"type":"Point","coordinates":[-76.35428,34.50962]},"properties":{"name":"East of Rocks","symbol":"Rocks","region":"MoreheadNC","source":"Fishing Status (fishingstatus.com)","fs_id":"1312278"}},{"type":"Feature","geometry":{"type":"Point","coordinates":[-76.37405,34.58063]},"properties":{"name":"NNE OF 1700 Rocks","symbol":"Rocks","region":"MoreheadNC","source":"Fishing Status (fishingstatus.com)","fs_id":"1312247"}},{"type":"Feature","geometry":{"type":"Point","coordinates":[-77.30469,34.24924]},"properties":{"name":"Jesses Place","symbol":"Rocks","region":"MoreheadNC","source":"Fishing Status (fishingstatus.com)","fs_id":"5977"}},{"type":"Feature","geometry":{"type":"Point","coordinates":[-77.19167,34.13667]},"properties":{"name":"SNEADS FERRY BIG ROCK","symbol":"Rocks","region":"MoreheadNC","source":"Fishing Status (fishingstatus.com)","fs_id":"6542"}},{"type":"Feature","geometry":{"type":"Point","coordinates":[-76.37982,34.33562]},"properties":{"name":"Rocks","symbol":"Rocks","region":"MoreheadNC","source":"Fishing Status (fishingstatus.com)","fs_id":"1312337"}},{"type":"Feature","geometry":{"type":"Point","coordinates":[-76.97747,34.3302]},"properties":{"name":"85 Degree Ledges","symbol":"Rocks","region":"MoreheadNC","source":"Fishing Status (fishingstatus.com)","fs_id":"1312336"}},{"type":"Feature","geometry":{"type":"Point","coordinates":[-76.60263,34.3208]},"properties":{"name":"West Rock No 2","symbol":"Rocks","region":"MoreheadNC","source":"Fishing Status (fishingstatus.com)","fs_id":"1312335"}},{"type":"Feature","geometry":{"type":"Point","coordinates":[-76.37879,34.01347]},"properties":{"name":"THE RISE HUMP","symbol":"Rocks","region":"MoreheadNC","source":"Fishing Status (fishingstatus.com)","fs_id":"1381365"}},{"type":"Feature","geometry":{"type":"Point","coordinates":[-77.14777,34.54587]},"properties":{"name":"Offshore Rock","symbol":"Rocks","region":"MoreheadNC","source":"Fishing Status (fishingstatus.com)","fs_id":"1312285"}},{"type":"Feature","geometry":{"type":"Point","coordinates":[-77.21133,34.38483]},"properties":{"name":"HONEYMOON ROCK","symbol":"Rocks","region":"MoreheadNC","source":"Fishing Status (fishingstatus.com)","fs_id":"6424"}},{"type":"Feature","geometry":{"type":"Point","coordinates":[-77.16279,34.4]},"properties":{"name":"CHRISTMAS ROCK","symbol":"Rocks","region":"MoreheadNC","source":"Fishing Status (fishingstatus.com)","fs_id":"1381297"}},{"type":"Feature","geometry":{"type":"Point","coordinates":[-76.40935,34.73356]},"properties":{"name":"Drum Ledge South","symbol":"Rocks","region":"MoreheadNC","source":"Fishing Status (fishingstatus.com)","fs_id":"5917"}},{"type":"Feature","geometry":{"type":"Point","coordinates":[-76.59065,34.2445]},"properties":{"name":"210 Degree Rock","symbol":"Rocks","region":"MoreheadNC","source":"Fishing Status (fishingstatus.com)","fs_id":"1312307"}},{"type":"Feature","geometry":{"type":"Point","coordinates":[-76.35633,34.51016]},"properties":{"name":"EROCK","symbol":"Rocks","region":"MoreheadNC","source":"Fishing Status (fishingstatus.com)","fs_id":"1413092"}},{"type":"Feature","geometry":{"type":"Point","coordinates":[-76.783,33.725]},"properties":{"name":"CB Ledge","symbol":"Rocks","region":"MoreheadNC","source":"Fishing Status (fishingstatus.com)","fs_id":"1339698"}},{"type":"Feature","geometry":{"type":"Point","coordinates":[-77.16425,34.40662]},"properties":{"name":"CHRISTMAS ROCK","symbol":"Rocks","region":"MoreheadNC","source":"Fishing Status (fishingstatus.com)","fs_id":"6680"}},{"type":"Feature","geometry":{"type":"Point","coordinates":[-76.58112,34.27515]},"properties":{"name":"Southwest Rocks","symbol":"Rocks","region":"MoreheadNC","source":"Fishing Status (fishingstatus.com)","fs_id":"1312317"}},{"type":"Feature","geometry":{"type":"Point","coordinates":[-77.03047,34.44562]},"properties":{"name":"ROCKS","symbol":"Rocks","region":"MoreheadNC","source":"Fishing Status (fishingstatus.com)","fs_id":"1381381"}},{"type":"Feature","geometry":{"type":"Point","coordinates":[-76.58178,34.37722]},"properties":{"name":"Little 10 Rocks","symbol":"Rocks","region":"MoreheadNC","source":"Fishing Status (fishingstatus.com)","fs_id":"1312269"}},{"type":"Feature","geometry":{"type":"Point","coordinates":[-76.3352,34.55633]},"properties":{"name":"1700 Rocks","symbol":"Rocks","region":"MoreheadNC","source":"Fishing Status (fishingstatus.com)","fs_id":"1312291"}},{"type":"Feature","geometry":{"type":"Point","coordinates":[-77.06852,34.58788]},"properties":{"name":"STATION ROCK","symbol":"Rocks","region":"MoreheadNC","source":"Fishing Status (fishingstatus.com)","fs_id":"1381360"}},{"type":"Feature","geometry":{"type":"Point","coordinates":[-76.93333,34.58695]},"properties":{"name":"East Rocks","symbol":"Rocks","region":"MoreheadNC","source":"Fishing Status (fishingstatus.com)","fs_id":"1312250"}},{"type":"Feature","geometry":{"type":"Point","coordinates":[-76.47646,34.23654]},"properties":{"name":"Private ROCK","symbol":"Rocks","region":"MoreheadNC","source":"Fishing Status (fishingstatus.com)","fs_id":"1413543"}},{"type":"Feature","geometry":{"type":"Point","coordinates":[-76.95,34.187]},"properties":{"name":"DOORSTOP LEDGE-LOW STEP","symbol":"Rocks","region":"MoreheadNC","source":"Fishing Status (fishingstatus.com)","fs_id":"6209"}},{"type":"Feature","geometry":{"type":"Point","coordinates":[-76.69128,34.71842]},"properties":{"name":"UNKNOWN","symbol":"Wreck","region":"MoreheadNC","source":"Fishing Status (fishingstatus.com)","fs_id":"807765"}},{"type":"Feature","geometry":{"type":"Point","coordinates":[-76.37785,34.33972]},"properties":{"name":"Northeast Rock","symbol":"Rocks","region":"MoreheadNC","source":"Fishing Status (fishingstatus.com)","fs_id":"1312338"}},{"type":"Feature","geometry":{"type":"Point","coordinates":[-76.43899,34.76061]},"properties":{"name":"Shingle Point","symbol":"Rocks","region":"MoreheadNC","source":"Fishing Status (fishingstatus.com)","fs_id":"1642642"}},{"type":"Feature","geometry":{"type":"Point","coordinates":[-76.404,34.574]},"properties":{"name":"rock 14.9","symbol":"Rocks","region":"MoreheadNC","source":"Fishing Status (fishingstatus.com)","fs_id":"1413637"}},{"type":"Feature","geometry":{"type":"Point","coordinates":[-76.85872,34.02148]},"properties":{"name":"Beeliner","symbol":"Rocks","region":"MoreheadNC","source":"Fishing Status (fishingstatus.com)","fs_id":"1413530"}},{"type":"Feature","geometry":{"type":"Point","coordinates":[-76.37867,34.01333]},"properties":{"name":"THE RISE","symbol":"Rocks","region":"MoreheadNC","source":"Fishing Status (fishingstatus.com)","fs_id":"6253"}},{"type":"Feature","geometry":{"type":"Point","coordinates":[-76.58631,34.29386]},"properties":{"name":"WEST-ROCK22","symbol":"Rocks","region":"MoreheadNC","source":"Fishing Status (fishingstatus.com)","fs_id":"1542772"}},{"type":"Feature","geometry":{"type":"Point","coordinates":[-76.57103,34.29677]},"properties":{"name":"West Rocks","symbol":"Rocks","region":"MoreheadNC","source":"Fishing Status (fishingstatus.com)","fs_id":"1312327"}},{"type":"Feature","geometry":{"type":"Point","coordinates":[-76.58598,34.24523]},"properties":{"name":"210 Degree Rock","symbol":"Rocks","region":"MoreheadNC","source":"Fishing Status (fishingstatus.com)","fs_id":"1312308"}},{"type":"Feature","geometry":{"type":"Point","coordinates":[-76.57973,34.28949]},"properties":{"name":"WEST-ROCK42","symbol":"Rocks","region":"MoreheadNC","source":"Fishing Status (fishingstatus.com)","fs_id":"1542773"}},{"type":"Feature","geometry":{"type":"Point","coordinates":[-76.4992,34.69]},"properties":{"name":"Drum Hole","symbol":"Rocks","region":"MoreheadNC","source":"Fishing Status (fishingstatus.com)","fs_id":"1410537"}},{"type":"Feature","geometry":{"type":"Point","coordinates":[-76.5263,34.6839]},"properties":{"name":"Shell Point","symbol":"Rocks","region":"MoreheadNC","source":"Fishing Status (fishingstatus.com)","fs_id":"1410536"}},{"type":"Feature","geometry":{"type":"Point","coordinates":[-76.45574,34.00271]},"properties":{"name":"TR-ROCK2","symbol":"Rocks","region":"MoreheadNC","source":"Fishing Status (fishingstatus.com)","fs_id":"1542652"}},{"type":"Feature","geometry":{"type":"Point","coordinates":[-76.16998,34.15243]},"properties":{"name":"West Big Rock","symbol":"Rocks","region":"MoreheadNC","source":"Fishing Status (fishingstatus.com)","fs_id":"1312265"}},{"type":"Feature","geometry":{"type":"Point","coordinates":[-77.01143,34.4206]},"properties":{"name":"Rocks","symbol":"Rocks","region":"MoreheadNC","source":"Fishing Status (fishingstatus.com)","fs_id":"1236174"}},{"type":"Feature","geometry":{"type":"Point","coordinates":[-76.63193,34.28003]},"properties":{"name":"240 Degree Rocks","symbol":"Rocks","region":"MoreheadNC","source":"Fishing Status (fishingstatus.com)","fs_id":"1312320"}},{"type":"Feature","geometry":{"type":"Point","coordinates":[-76.35605,34.98086]},"properties":{"name":"Oyster Rocks West Bay","symbol":"Rocks","region":"MoreheadNC","source":"Fishing Status (fishingstatus.com)","fs_id":"1321351"}},{"type":"Feature","geometry":{"type":"Point","coordinates":[-76.39282,34.40002]},"properties":{"name":"East Rock","symbol":"Rocks","region":"MoreheadNC","source":"Fishing Status (fishingstatus.com)","fs_id":"1312275"}},{"type":"Feature","geometry":{"type":"Point","coordinates":[-76.6158,34.7078]},"properties":{"name":"Lenoxville Point","symbol":"Rocks","region":"MoreheadNC","source":"Fishing Status (fishingstatus.com)","fs_id":"1410526"}},{"type":"Feature","geometry":{"type":"Point","coordinates":[-77.05522,34.55101]},"properties":{"name":"45 MINUTE ROCK","symbol":"Rocks","region":"MoreheadNC","source":"Fishing Status (fishingstatus.com)","fs_id":"1381281"}},{"type":"Feature","geometry":{"type":"Point","coordinates":[-76.45575,34.00272]},"properties":{"name":"TR--ROCK 2","symbol":"Rocks","region":"MoreheadNC","source":"Fishing Status (fishingstatus.com)","fs_id":"1542651"}},{"type":"Feature","geometry":{"type":"Point","coordinates":[-76.35605,34.97944]},"properties":{"name":"Oyster Rocks West Bay","symbol":"Rocks","region":"MoreheadNC","source":"Fishing Status (fishingstatus.com)","fs_id":"1321353"}},{"type":"Feature","geometry":{"type":"Point","coordinates":[-76.16684,34.62003]},"properties":{"name":"CHICKEN ROCK","symbol":"Rocks","region":"MoreheadNC","source":"Fishing Status (fishingstatus.com)","fs_id":"1381296"}},{"type":"Feature","geometry":{"type":"Point","coordinates":[-76.90421,34.2835]},"properties":{"name":"6 FOOT LEDGE","symbol":"Rocks","region":"MoreheadNC","source":"Fishing Status (fishingstatus.com)","fs_id":"1381283"}},{"type":"Feature","geometry":{"type":"Point","coordinates":[-76.3315,34.8835]},"properties":{"name":"White Point","symbol":"Rocks","region":"MoreheadNC","source":"Fishing Status (fishingstatus.com)","fs_id":"1410538"}}]}